[
  {
    "id": 1,
    "name": "Lawlor's of Naas",
    "image": "vegRestaurant1.jpg",
    "location": {
      "county": "Kildare",
      "town": "Naas",
      "logitude": "53.21971207698044",
      "latitude": "-6.659895923539561"
    }
  },
  {
    "id": 2,
    "name": "Bistro 53",
    "image": "vegRestaurant2.jpg",
    "location": {
      "county": "Kildare",
      "town": "Maynooth",
      "logitude": "53.20326418548545",
      "latitude": "-6.719843591372213"
    }
  },
  {
    "id": 3,
    "name": "Avenue Cafe, Resturanr &Bar",
    "image": "vegRestaurant3.jpg",
    "location": {
      "county": "Kildare",
      "town": "Maynooth",
      "logitude": "53.377457900003016",
      "latitude": "-6.6002802892980075"
    }
  },
  {
    "id": 4,
    "name": "Amber Tree Bistro",
    "image": "vegRestaurant4.jpg",
    "location": {
      "county": "Kildare",
      "town": "Celbridge",
      "logitude": "53.343356287811275",
      "latitude": "-6.545114758275737"
    }
  },
  {
    "id": 5,
    "name": "SÃ¡sta by the River",
    "image": "vegRestaurant5.jpg",
    "location": {
      "county": "Kildare",
      "town": "Maynooth",
      "logitude": "53.37433449417533",
      "latitude": "-6.6026191756211094"
    }
  },
  {
    "id": 6,
    "name": "Stone Haven restaurant",
    "image": "vegRestaurant6.jpg",
    "location": {
      "county": "Kildare",
      "town": "Lexilip",
      "logitude": "53.353590409681644",
      "latitude": "-6.489312792370091"
    }
  },
  {
    "id": 7,
    "name": "Rye River Cafe",
    "image": "vegRestaurant7.jpg",
    "location": {
      "county": "Kildare",
      "town": "Maynooth",
      "logitude": "53.38443379085554",
      "latitude": "-6.597967300931943"
    }
  },
  {
    "id": 8,
    "name": "Timeless Cafe",
    "image": "vegRestaurant8.jpg",
    "location": {
      "county": "Kildare",
      "town": "Kilcock",
      "logitude": "53.39903233715419",
      "latitude": "-6.667552550581327"
    }
  }
]
